City_ID,City,Country,Date,Lat,Lng,Max Temp,Humidity,Cloudiness,Wind Speed
0,Sisimiut,GL,2022-03-29 18:48:54,66.9395,-53.6735,26.24,92,95,6.89
1,High Rock,BS,2022-03-29 18:48:54,26.6208,-78.2833,77.02,62,0,1.05
2,Qaanaaq,GL,2022-03-29 18:48:55,77.484,-69.3632,15.19,90,100,2.04
3,Cidreira,BR,2022-03-29 18:48:55,-30.1811,-50.2056,76.17,71,0,12.95
4,Bengkulu,ID,2022-03-29 18:48:56,-3.8004,102.2655,75.76,84,100,4.72
5,Busselton,AU,2022-03-29 18:48:56,-33.65,115.3333,66.31,79,100,15.23
6,Bluff,NZ,2022-03-29 18:48:57,-46.6,168.3333,54.48,90,8,6.29
7,Lieksa,FI,2022-03-29 18:48:57,63.3167,30.0167,16.83,95,91,8.05
8,Longyearbyen,SJ,2022-03-29 18:48:58,78.2186,15.6401,12.04,62,0,4.61
9,Yellowknife,CA,2022-03-29 18:48:58,62.456,-114.3525,17.42,79,75,6.91
10,Ushuaia,AR,2022-03-29 18:48:58,-54.8,-68.3,44.26,70,75,27.63
11,Evensk,RU,2022-03-29 18:48:59,61.95,159.2333,13.86,79,100,12.71
12,Kyren,RU,2022-03-29 18:48:59,51.6828,102.1408,13.21,92,75,1.88
13,Thompson,CA,2022-03-29 18:49:00,55.7435,-97.8558,26.76,74,100,6.91
14,Marshall,US,2022-03-29 18:45:52,34.3834,-86.3333,75.33,61,0,10.36
15,Omsukchan,RU,2022-03-29 18:49:01,62.5333,155.8,-0.33,98,100,3.89
16,Ribeira Grande,PT,2022-03-29 18:49:01,38.5167,-28.7,66.6,82,40,6.91
17,Rikitea,PF,2022-03-29 18:49:02,-23.1203,-134.9692,77.67,70,17,5.41
18,Hithadhoo,MV,2022-03-29 18:49:02,-0.6,73.0833,82.49,66,11,6.02
19,Lebu,CL,2022-03-29 18:49:03,-37.6167,-73.65,57.24,54,2,16.69
20,Albany,US,2022-03-29 18:44:32,42.6001,-73.9662,35.46,34,100,4.0
21,Bethel,US,2022-03-29 18:44:40,41.3712,-73.414,38.57,42,40,12.66
22,Synya,RU,2022-03-29 18:49:05,65.3718,58.0387,2.79,97,99,4.14
23,Vanimo,PG,2022-03-29 18:49:05,-2.6741,141.3028,76.42,91,100,9.04
24,Castro,BR,2022-03-29 18:49:06,-24.7911,-50.0119,78.19,58,0,5.91
25,Kapaa,US,2022-03-29 18:49:06,22.0752,-159.319,74.48,86,20,8.05
26,Cape Town,ZA,2022-03-29 18:44:56,-33.9258,18.4232,64.11,85,20,16.11
27,Grindavik,IS,2022-03-29 18:49:07,63.8424,-22.4338,39.15,81,75,16.11
28,Ilmenau,DE,2022-03-29 18:49:07,50.6833,10.9,48.47,65,100,2.75
29,Hobart,AU,2022-03-29 18:49:08,-42.8794,147.3294,57.25,84,100,1.01
30,Verkhoyansk,RU,2022-03-29 18:49:09,67.5447,133.385,-11.52,100,99,2.84
31,Vaini,TO,2022-03-29 18:49:09,-21.2,-175.2,71.76,94,20,3.44
32,Linhares,BR,2022-03-29 18:49:10,-19.3911,-40.0722,83.88,62,98,6.85
33,Sibut,CF,2022-03-29 18:49:10,5.718,19.0739,84.4,33,29,4.16
34,Puerto Ayora,EC,2022-03-29 18:49:11,-0.7393,-90.3518,84.16,93,49,5.01
35,Nikolskoye,RU,2022-03-29 18:49:11,59.7035,30.7861,23.81,89,27,5.48
36,Baghdad,IQ,2022-03-29 18:47:50,33.3406,44.4009,60.71,27,0,2.3
37,Vila Velha,BR,2022-03-29 18:49:02,-20.3297,-40.2925,84.15,80,40,12.66
38,Esterhazy,CA,2022-03-29 18:49:12,50.65,-102.0843,31.05,94,100,14.54
39,Katsuura,JP,2022-03-29 18:49:13,35.1333,140.3,53.62,83,100,12.48
40,Mar Del Plata,AR,2022-03-29 18:44:39,-38.0023,-57.5575,70.88,58,0,13.8
41,Scarborough,GB,2022-03-29 18:49:14,54.2797,-0.4044,45.34,89,60,1.99
42,Ancud,CL,2022-03-29 18:49:15,-41.8697,-73.8203,54.23,56,17,16.28
43,Kurilsk,RU,2022-03-29 18:49:15,45.2333,147.8833,31.98,75,85,8.63
44,Viedma,AR,2022-03-29 18:49:16,-40.8135,-62.9967,58.32,36,98,28.83
45,Bredasdorp,ZA,2022-03-29 18:49:16,-34.5322,20.0403,63.77,70,10,12.26
46,Ponta Do Sol,PT,2022-03-29 18:50:17,32.6667,-17.1,66.7,69,28,7.4
47,Callaguip,PH,2022-03-29 18:50:17,18.0714,120.4867,78.82,94,75,2.3
48,Mataura,NZ,2022-03-29 18:50:18,-46.1927,168.8643,49.68,99,13,1.54
49,Verkhnyaya Inta,RU,2022-03-29 18:50:18,65.9811,60.3094,4.64,96,95,4.79
50,Moerai,PF,2022-03-29 18:50:19,-22.4333,-151.3333,80.55,71,91,5.37
51,Changping,CN,2022-03-29 18:50:20,40.2186,116.2197,46.04,85,100,2.21
52,Punta Arenas,CL,2022-03-29 18:50:21,-53.15,-70.9167,46.42,65,75,24.16
53,Namatanai,PG,2022-03-29 18:50:21,-3.6667,152.4333,80.35,79,49,8.05
54,Nhulunbuy,AU,2022-03-29 18:50:22,-12.2333,136.7667,77.61,88,100,4.61
55,Hilo,US,2022-03-29 18:47:35,19.7297,-155.09,75.25,77,75,4.0
56,Tianpeng,CN,2022-03-29 18:50:23,30.9866,103.9393,57.67,67,91,1.12
57,Severo-Kurilsk,RU,2022-03-29 18:50:23,50.6789,156.125,26.92,72,35,15.23
58,Marienburg,PL,2022-03-29 18:50:24,54.0359,19.0266,37.89,81,100,5.77
59,Tasiilaq,GL,2022-03-29 18:50:24,65.6145,-37.6368,24.96,74,100,12.68
60,Souillac,MU,2022-03-29 18:50:25,-20.5167,57.5167,80.98,69,40,5.75
61,Atuona,PF,2022-03-29 18:50:25,-9.8,-139.0333,79.23,78,81,17.02
62,Jamestown,US,2022-03-29 18:50:26,42.097,-79.2353,33.53,44,0,8.05
63,Barrow,US,2022-03-29 18:50:26,71.2906,-156.7887,-12.98,70,0,19.57
64,Tukrah,LY,2022-03-29 18:50:27,32.5341,20.5791,56.19,90,4,5.48
65,Ayan,RU,2022-03-29 18:50:28,56.45,138.1667,16.95,79,100,7.74
66,Cabo San Lucas,MX,2022-03-29 18:50:28,22.8909,-109.9124,85.3,54,100,1.99
67,Tazmalt,DZ,2022-03-29 18:50:29,36.3868,4.3989,61.41,67,98,7.45
68,Upernavik,GL,2022-03-29 18:50:29,72.7868,-56.1549,18.84,86,93,4.43
69,Carnarvon,AU,2022-03-29 18:49:42,-24.8667,113.6333,73.47,94,40,6.91
70,New Norfolk,AU,2022-03-29 18:50:30,-42.7826,147.0587,56.91,59,92,1.01
71,Provideniya,RU,2022-03-29 18:50:30,64.3833,-173.3,2.97,80,13,6.4
72,Port Lincoln,AU,2022-03-29 18:50:31,-34.7333,135.8667,62.76,75,96,15.05
73,Sur,OM,2022-03-29 18:50:31,22.5667,59.5289,81.95,33,0,1.92
74,Raga,SS,2022-03-29 18:50:31,8.4596,25.678,81.88,13,21,3.74
75,Svetlogorsk,BY,2022-03-29 18:50:32,52.6333,29.7333,39.92,67,100,5.64
76,Port Elizabeth,ZA,2022-03-29 18:48:11,-33.918,25.5701,67.1,89,0,9.22
77,Hermanus,ZA,2022-03-29 18:50:33,-34.4187,19.2345,67.8,75,1,19.35
78,Havoysund,NO,2022-03-29 18:50:33,70.9963,24.6622,32.23,84,100,31.41
79,San Cristobal,VE,2022-03-29 18:50:33,7.7669,-72.225,78.98,68,77,5.61
80,Sungairaya,ID,2022-03-29 18:50:34,0.7,108.9,77.81,86,100,2.98
81,Lotofaga,WS,2022-03-29 18:50:34,-13.9764,-171.8578,76.78,75,100,14.09
82,San Carlos De Bariloche,AR,2022-03-29 18:46:31,-41.1456,-71.3082,47.95,43,40,16.11
83,Esperance,AU,2022-03-29 18:50:35,-33.8667,121.9,62.44,78,100,13.06
84,Macas,EC,2022-03-29 18:46:33,-2.3167,-78.1167,80.35,57,75,2.3
85,Meshchovsk,RU,2022-03-29 18:50:36,54.3244,35.2808,31.69,86,100,9.13
86,Mayo,US,2022-03-29 18:50:36,38.8876,-76.5119,44.26,35,0,11.5
87,Klaksvik,FO,2022-03-29 18:50:37,62.2266,-6.589,34.72,52,100,17.85
88,Mazagao,BR,2022-03-29 18:50:37,-0.115,-51.2894,74.46,97,100,2.19
89,Boyolangu,ID,2022-03-29 18:50:37,-8.1181,111.8935,75.52,89,98,2.35
90,Fairbanks,US,2022-03-29 18:45:39,64.8378,-147.7164,33.82,64,100,8.05
91,Mbuji-Mayi,CD,2022-03-29 18:50:38,-6.15,23.6,68.4,97,99,1.48
92,Kavaratti,IN,2022-03-29 18:50:39,10.5669,72.642,83.14,77,28,7.49
93,Tuktoyaktuk,CA,2022-03-29 18:50:39,69.4541,-133.0374,-20.2,76,0,9.22
94,Dumai,ID,2022-03-29 18:49:22,1.6833,101.45,74.23,98,9,1.83
95,Bolobo,CD,2022-03-29 18:51:40,-2.1667,16.2333,72.39,95,100,3.76
96,Tuatapere,NZ,2022-03-29 18:50:13,-46.1333,167.6833,52.61,94,3,3.24
97,Lorengau,PG,2022-03-29 18:51:41,-2.0226,147.2712,81.52,79,54,11.9
98,Saint-Philippe,RE,2022-03-29 18:51:41,-21.3585,55.7679,76.59,87,100,11.3
99,Sao Filipe,CV,2022-03-29 18:51:42,14.8961,-24.4956,71.6,77,0,13.29
100,East London,ZA,2022-03-29 18:51:42,-33.0153,27.9116,74.34,73,0,17.27
101,Lompoc,US,2022-03-29 18:51:43,34.6391,-120.4579,68.02,75,20,19.57
102,Fortuna,US,2022-03-29 18:51:43,40.5982,-124.1573,52.93,94,100,9.22
103,Richards Bay,ZA,2022-03-29 18:51:43,-28.783,32.0377,74.26,75,0,16.4
104,Warwick,US,2022-03-29 18:51:44,41.7001,-71.4162,40.44,37,100,3.0
105,Tiksi,RU,2022-03-29 18:51:44,71.6872,128.8694,-0.89,97,100,4.94
106,Komsomolskiy,UZ,2022-03-29 18:51:45,40.4272,71.7189,45.32,57,29,0.0
107,Nola,IT,2022-03-29 18:49:52,40.922,14.5329,58.35,74,63,1.92
108,Belmonte,BR,2022-03-29 18:51:45,-15.8631,-38.8828,82.13,63,35,7.36
109,Smithers,CA,2022-03-29 18:51:46,54.7804,-127.1743,41.32,52,75,5.75
110,Yarim,YE,2022-03-29 18:51:46,14.298,44.3779,53.69,25,1,12.17
111,Nizhniy Ingash,RU,2022-03-29 18:51:47,56.2,96.53,15.49,92,11,3.36
112,Trairi,BR,2022-03-29 18:51:47,-3.2778,-39.2689,76.55,92,100,9.48
113,Kahului,US,2022-03-29 18:51:48,20.8947,-156.47,77.97,73,20,14.0
114,Havre-Saint-Pierre,CA,2022-03-29 18:51:48,50.2334,-63.5986,39.56,87,100,18.41
115,Butaritari,KI,2022-03-29 18:51:48,3.0707,172.7902,80.85,71,99,13.33
116,Kayerkan,RU,2022-03-29 18:51:49,69.3497,87.7602,24.53,73,100,10.07
117,Seoul,KR,2022-03-29 18:51:49,37.5683,126.9778,42.24,87,0,2.3
118,Along,IN,2022-03-29 18:51:50,28.1667,94.7667,67.41,68,82,1.86
119,Salalah,OM,2022-03-29 18:48:29,17.0151,54.0924,78.89,78,0,3.44
120,Boiro,ES,2022-03-29 18:51:51,42.65,-8.9,56.79,66,100,9.31
121,Faanui,PF,2022-03-29 18:51:51,-16.4833,-151.75,82.58,72,16,17.54
122,Georgetown,MY,2022-03-29 18:51:27,5.4112,100.3354,80.53,93,20,3.44
123,Dhadar,IN,2022-03-29 18:51:52,28.3305,75.0632,83.55,11,0,1.97
124,Novobirilyussy,RU,2022-03-29 18:51:52,56.9514,90.6661,21.6,97,100,3.85
125,Mahebourg,MU,2022-03-29 18:51:53,-20.4081,57.7,80.89,69,40,5.75
126,Mnogovershinnyy,RU,2022-03-29 18:51:53,53.9353,139.9242,20.91,96,100,7.0
127,Aklavik,CA,2022-03-29 18:51:54,68.2191,-135.0107,-7.6,96,100,7.47
128,Mehamn,NO,2022-03-29 18:51:54,71.0357,27.8492,28.31,76,100,27.18
129,Deoria,IN,2022-03-29 18:51:39,26.5047,83.7872,78.19,28,3,6.35
130,Shitanjing,CN,2022-03-29 18:51:55,39.2342,106.3439,40.96,28,0,5.08
131,Araouane,ML,2022-03-29 18:51:56,18.9048,-3.5265,91.13,7,49,9.57
132,Petit Goave,HT,2022-03-29 18:51:56,18.4314,-72.8669,79.68,67,61,5.84
133,Korla,CN,2022-03-29 18:51:56,41.7597,86.1469,53.83,28,100,7.07
134,Avera,US,2022-03-29 18:51:57,33.194,-82.5271,69.31,39,70,7.2
135,Broken Hill,AU,2022-03-29 18:51:57,-31.95,141.4333,60.51,59,54,13.8
136,Avarua,CK,2022-03-29 18:51:58,-21.2078,-159.775,82.45,83,20,9.22
137,Arraial Do Cabo,BR,2022-03-29 18:51:58,-22.9661,-42.0278,82.36,74,75,5.75
138,Hemsedal,NO,2022-03-29 18:51:59,60.8629,8.5534,10.9,89,38,6.22
139,Waddan,LY,2022-03-29 18:52:59,29.1614,16.139,71.49,25,10,7.96
140,Witu,KE,2022-03-29 18:53:00,-2.3889,40.4382,82.56,76,93,8.48
141,Alofi,NU,2022-03-29 18:53:00,-19.0595,-169.9187,76.89,94,100,10.36
142,Norman Wells,CA,2022-03-29 18:53:01,65.282,-126.8329,6.84,72,100,4.61
143,Saskylakh,RU,2022-03-29 18:53:01,71.9167,114.0833,-28.19,100,100,3.83
144,Ishigaki,JP,2022-03-29 18:53:02,24.3448,124.1572,73.53,100,100,11.5
145,Cherskiy,RU,2022-03-29 18:53:02,68.75,161.3,-10.01,84,99,3.04
146,Half Moon Bay,US,2022-03-29 18:53:03,37.4636,-122.4286,66.6,81,100,14.97
147,Nueva Loja,EC,2022-03-29 18:53:03,0.0847,-76.8828,82.42,74,75,3.44
148,Hofn,IS,2022-03-29 18:53:04,64.2539,-15.2082,32.38,60,27,9.28
149,Jalu,LY,2022-03-29 18:53:04,29.0331,21.5482,70.79,29,11,9.95
150,Srednekolymsk,RU,2022-03-29 18:53:05,67.45,153.6833,-2.72,88,100,7.78
151,Vanavara,RU,2022-03-29 18:53:05,60.34,102.2797,3.43,98,88,3.98
152,Awjilah,LY,2022-03-29 18:53:06,29.1081,21.2869,69.48,38,13,12.08
153,Sikonge,TZ,2022-03-29 18:53:06,-5.6333,32.7667,67.55,86,78,4.65
154,Bardiyah,LY,2022-03-29 18:53:07,31.7561,25.0865,61.93,66,4,6.53
155,Qaqortoq,GL,2022-03-29 18:53:07,60.7167,-46.0333,33.66,69,87,4.07
156,Laguna,US,2022-03-29 18:53:08,38.421,-121.4238,65.14,70,20,3.44
157,Buraydah,SA,2022-03-29 18:53:09,26.326,43.975,66.65,9,7,8.25
158,Humberto De Campos,BR,2022-03-29 18:53:09,-2.5983,-43.4611,80.06,88,98,4.85
159,Dikson,RU,2022-03-29 18:53:10,73.5069,80.5464,9.63,94,100,12.21
160,Soeng Sang,TH,2022-03-29 18:53:10,14.4264,102.4606,75.92,83,27,3.24
161,Codrington,AU,2022-03-29 18:53:11,-38.2667,141.9667,59.38,59,100,9.84
162,San Patricio,US,2022-03-29 18:53:12,28.017,-97.5169,82.49,54,16,25.14
163,Olinda,BR,2022-03-29 18:52:19,-8.0089,-34.8553,85.73,70,40,11.5
164,Clarence Town,AU,2022-03-29 18:53:12,-32.5833,151.7833,71.94,97,100,1.45
165,Waspan,NI,2022-03-29 18:53:13,14.7419,-83.9717,86.4,55,45,9.01
166,Luderitz,NA,2022-03-29 18:53:13,-26.6481,15.1594,64.04,81,66,10.65
167,Kodiak,US,2022-03-29 18:50:28,57.79,-152.4072,35.11,93,100,0.0
168,Byron Bay,AU,2022-03-29 18:51:48,-28.65,153.6167,67.95,97,100,18.95
169,Torbay,CA,2022-03-29 18:53:14,47.6666,-52.7314,35.28,92,100,16.11
170,Kununurra,AU,2022-03-29 18:53:15,-15.7667,128.7333,76.98,88,97,2.3
171,Kilindoni,TZ,2022-03-29 18:53:15,-7.9139,39.6668,83.28,72,59,10.78
172,Thinadhoo,MV,2022-03-29 18:53:16,0.5333,72.9333,82.18,67,3,4.68
173,Majene,ID,2022-03-29 18:53:17,-3.5403,118.9707,77.14,87,100,3.18
174,Eureka,US,2022-03-29 18:50:40,40.8021,-124.1637,53.2,91,52,1.01
175,Airai,TL,2022-03-29 18:53:18,-8.9266,125.4092,59.74,95,96,0.63
176,Pingliang,CN,2022-03-29 18:53:19,35.5392,106.6861,47.32,33,100,1.43
177,Pisco,PE,2022-03-29 18:53:19,-13.7,-76.2167,73.45,64,0,21.85
178,Gandajika,CD,2022-03-29 18:53:20,-6.75,23.95,65.61,97,99,2.77
179,Alta Floresta,BR,2022-03-29 18:53:21,-9.8756,-56.0861,85.82,74,75,5.75
180,Srandakan,ID,2022-03-29 18:53:21,-7.9386,110.2506,77.41,86,83,3.67
181,Porbandar,IN,2022-03-29 18:53:22,21.6422,69.6093,79.16,74,0,8.08
182,Aksu,CN,2022-03-29 18:53:22,41.1231,80.2644,46.09,73,12,3.15
183,Channel-Port Aux Basques,CA,2022-03-29 18:53:23,47.5702,-59.1367,32.61,81,40,15.77
184,Goderich,CA,2022-03-29 18:53:23,43.7501,-81.7165,27.91,59,12,8.05
185,Port Alfred,ZA,2022-03-29 18:53:24,-33.5906,26.891,70.18,89,92,3.0
186,Ilhabela,BR,2022-03-29 18:53:24,-23.7781,-45.3581,77.34,86,40,4.81
187,Erdenet,MN,2022-03-29 18:53:25,49.0333,104.0833,20.98,60,88,3.18
188,Saint Anthony,US,2022-03-29 18:51:29,45.0205,-93.218,43.93,37,40,25.32
189,Pevek,RU,2022-03-29 18:54:25,69.7008,170.3133,-17.75,94,100,2.28
190,Makinsk,KZ,2022-03-29 18:54:26,52.6292,70.4169,17.47,92,100,23.62
191,Balkanabat,TM,2022-03-29 18:54:26,39.5108,54.3671,49.91,37,0,14.94
192,Ovsyanka,RU,2022-03-29 18:54:27,55.9575,92.5519,22.23,97,87,2.89
193,Taoudenni,ML,2022-03-29 18:54:27,22.6783,-3.9836,95.67,8,9,9.17
194,Pacific Grove,US,2022-03-29 18:54:27,36.6177,-121.9166,58.39,91,97,5.99
195,Sao Joao Da Barra,BR,2022-03-29 18:54:28,-21.6403,-41.0511,87.89,84,100,8.19
196,Urumqi,CN,2022-03-29 18:53:42,43.801,87.6005,41.95,61,0,4.47
197,Leningradskiy,RU,2022-03-29 18:54:29,69.3833,178.4167,-20.6,99,48,3.67
198,Zlobin,HR,2022-03-29 18:54:29,45.2924,14.6541,47.16,82,20,3.44
199,Nome,US,2022-03-29 18:54:30,64.5011,-165.4064,12.85,83,100,5.01
200,Te Anau,NZ,2022-03-29 18:54:30,-45.4167,167.7167,51.01,94,16,0.98
201,Nanortalik,GL,2022-03-29 18:54:31,60.1432,-45.2371,32.81,71,100,3.71
202,Pampa,US,2022-03-29 18:54:31,35.5362,-100.9599,80.64,18,40,37.98
203,Koumac,NC,2022-03-29 18:54:32,-20.5667,164.2833,77.79,86,100,4.18
204,Hasaki,JP,2022-03-29 18:54:32,35.7333,140.8333,48.6,83,100,10.6
205,Olivia,MU,2022-03-29 18:54:33,-20.2975,57.7256,79.75,69,40,5.75
206,Labuhan,ID,2022-03-29 18:54:33,-6.8844,112.2051,79.25,85,66,3.13
207,Hambantota,LK,2022-03-29 18:54:33,6.1241,81.1185,79.14,94,6,2.3
208,Bubaque,GW,2022-03-29 18:54:34,11.2833,-15.8333,76.77,76,0,20.04
209,Beloha,MG,2022-03-29 18:54:35,-25.1667,45.05,71.31,76,0,16.37
210,Victoria,HK,2022-03-29 18:54:11,22.2855,114.1577,70.95,88,100,4.0
211,Garissa,KE,2022-03-29 18:54:35,-0.4536,39.6401,85.77,55,95,14.29
212,Mudgee,AU,2022-03-29 18:54:36,-32.5943,149.5871,59.61,94,40,2.3
213,Staroutkinsk,RU,2022-03-29 18:54:36,57.2302,59.3348,17.67,98,94,3.6
214,Mayya,RU,2022-03-29 18:54:37,61.7333,130.2811,6.12,100,100,4.09
215,Orneta,PL,2022-03-29 18:54:37,54.1148,20.1333,37.0,64,100,3.91
216,Beringovskiy,RU,2022-03-29 18:54:38,63.05,179.3167,-3.89,96,98,11.18
217,Mount Pleasant,US,2022-03-29 18:49:42,32.7941,-79.8626,67.17,50,0,14.97
218,Kefamenanu,ID,2022-03-29 18:54:38,-9.4467,124.4781,70.72,93,100,2.15
219,Merauke,ID,2022-03-29 18:54:39,-8.4667,140.3333,78.37,86,99,10.36
220,Talara,PE,2022-03-29 18:54:39,-4.5772,-81.2719,83.16,57,19,11.5
221,Galesong,ID,2022-03-29 18:54:40,-5.3166,119.3661,73.42,79,96,2.15
222,Myaundzha,RU,2022-03-29 18:54:40,63.0494,147.1858,-23.49,91,82,2.66
223,Maltahohe,NA,2022-03-29 18:54:41,-24.8333,16.9833,75.07,32,63,14.43
224,Oranjestad,AW,2022-03-29 18:54:41,12.524,-70.027,85.95,62,20,20.71
225,Flinders,AU,2022-03-29 18:54:41,-34.5833,150.8552,67.28,94,100,5.01
226,Yar-Sale,RU,2022-03-29 18:54:42,66.8333,70.8333,14.43,97,98,6.62
227,Khatanga,RU,2022-03-29 18:54:42,71.9667,102.5,-28.57,100,31,2.01
228,Isangel,VU,2022-03-29 18:54:43,-19.55,169.2667,77.11,88,100,6.91
229,Geraldton,AU,2022-03-29 18:54:43,-28.7667,114.6,72.01,88,99,20.71
230,Vostok,RU,2022-03-29 18:54:44,46.4856,135.8833,20.71,94,78,8.81
231,North Bend,US,2022-03-29 18:52:54,43.4065,-124.2243,52.92,87,100,6.91
232,Dekernes,EG,2022-03-29 18:54:44,31.0876,31.595,54.43,87,6,6.78
233,Wanxian,CN,2022-03-29 18:54:45,30.8039,108.3897,61.3,77,100,1.59
234,Xining,CN,2022-03-29 18:54:45,36.6167,101.7667,35.37,44,29,1.19
235,Tilichiki,RU,2022-03-29 18:55:46,60.4667,166.1,10.09,91,100,10.42
236,Kirakira,SB,2022-03-29 18:55:46,-10.4544,161.9205,79.59,84,100,5.57
237,Samana,DO,2022-03-29 18:55:47,19.2056,-69.3369,82.62,78,75,4.61
238,Constitucion,CL,2022-03-29 18:55:47,-35.3333,-72.4167,63.81,41,0,20.04
239,Suntar,RU,2022-03-29 18:55:47,62.1444,117.6319,-1.12,98,100,4.27
240,Parabel,RU,2022-03-29 18:55:48,58.6978,81.4825,23.04,96,85,7.34
241,Mizan Teferi,ET,2022-03-29 18:55:48,6.9833,35.5833,67.01,68,91,2.35
242,Ahipara,NZ,2022-03-29 18:55:49,-35.1667,173.1667,61.39,89,8,4.34
243,Ndioum,SN,2022-03-29 18:55:49,16.5129,-14.6471,93.09,20,100,13.18
244,Novokizhinginsk,RU,2022-03-29 18:55:50,51.6115,109.5917,4.12,93,7,3.11
245,Kaliua,TZ,2022-03-29 18:55:50,-5.0606,31.7936,66.52,95,98,3.87
246,Touros,BR,2022-03-29 18:55:51,-5.1989,-35.4608,84.04,67,100,14.65
247,Sayyan,YE,2022-03-29 18:55:51,15.1718,44.3244,53.76,25,4,8.75
248,Baturaja,ID,2022-03-29 18:55:51,-4.1333,104.1667,73.89,94,100,1.7
249,Uniao,BR,2022-03-29 18:55:52,-4.5858,-42.8642,86.43,66,100,2.13
250,Berlevag,NO,2022-03-29 18:55:52,70.8578,29.0864,28.35,93,75,20.71
251,Saint George,US,2022-03-29 18:55:53,37.1041,-113.5841,58.42,61,40,10.36
252,Peniche,PT,2022-03-29 18:55:53,39.3558,-9.3811,58.28,85,5,20.02
253,Meulaboh,ID,2022-03-29 18:55:54,4.1363,96.1285,78.01,80,88,1.54
254,Bilibino,RU,2022-03-29 18:55:54,68.0546,166.4372,-2.7,83,100,4.34
255,Dingle,PH,2022-03-29 18:55:54,10.9995,122.6711,76.8,85,66,8.05
256,Broome,US,2022-03-29 18:55:55,42.2506,-75.833,32.47,49,100,11.99
257,Chuy,UY,2022-03-29 18:51:12,-33.6971,-53.4616,87.17,34,5,10.67
258,Lingen,DE,2022-03-29 18:55:56,52.5167,7.3167,48.24,75,24,9.46
259,Niquelandia,BR,2022-03-29 18:55:56,-14.4739,-48.4597,87.06,48,67,4.12
260,Cockburn Town,TC,2022-03-29 18:55:57,21.4612,-71.1419,78.76,57,75,16.11
261,Necochea,AR,2022-03-29 18:55:57,-38.5473,-58.7368,64.96,50,68,24.72
262,Udachnyy,RU,2022-03-29 18:55:57,66.4167,112.4,-11.33,100,87,3.94
263,Iskateley,RU,2022-03-29 18:55:58,67.6803,53.1512,2.66,91,98,7.78
264,Jitauna,BR,2022-03-29 18:55:59,-14.0189,-39.8889,85.57,54,70,5.21
265,Kudat,MY,2022-03-29 18:55:59,6.8837,116.8477,80.53,89,20,2.3
266,Harnosand,SE,2022-03-29 18:56:00,62.6323,17.9379,32.0,59,100,12.06
267,Grand-Lahou,CI,2022-03-29 18:56:00,5.1367,-5.0242,81.55,82,56,9.55
268,Koslan,RU,2022-03-29 18:56:00,63.4564,48.8989,14.58,91,100,4.21
269,Caravelas,BR,2022-03-29 18:56:01,-17.7125,-39.2481,82.15,66,11,7.65
270,Melilla,ES,2022-03-29 18:52:05,35.2937,-2.9383,61.18,82,0,6.91
271,Karratha,AU,2022-03-29 18:56:02,-20.7377,116.8463,81.81,71,69,1.83
272,Port Hardy,CA,2022-03-29 18:56:02,50.6996,-127.4199,46.58,87,75,10.36
273,Carutapera,BR,2022-03-29 18:53:19,-1.195,-46.02,78.35,92,100,2.71
274,Concordia,AR,2022-03-29 18:55:19,-31.393,-58.0209,86.07,55,40,11.01
275,Tahe,CN,2022-03-29 18:56:04,52.3333,124.7333,15.03,76,2,6.22
276,Dusti,TJ,2022-03-29 18:56:04,37.3481,68.664,50.41,40,3,1.45
277,Tarakan,ID,2022-03-29 18:56:05,3.3,117.6333,72.9,94,40,18.41
278,Thunder Bay,CA,2022-03-29 18:51:31,48.4001,-89.3168,33.78,51,100,9.22
279,Taksimo,RU,2022-03-29 18:56:06,56.3444,114.8794,3.94,82,48,5.06
280,Colares,PT,2022-03-29 18:56:06,38.7992,-9.4469,60.48,72,20,28.77
281,Ilulissat,GL,2022-03-29 18:56:07,69.2167,-51.1,30.04,86,63,2.59
282,Bemidji,US,2022-03-29 18:52:42,47.4736,-94.8803,39.9,44,100,18.41
283,Salta,AR,2022-03-29 18:57:08,-24.7859,-65.4117,87.58,47,0,5.75
284,Khakhea,BW,2022-03-29 18:57:08,-24.6895,23.494,72.68,32,0,7.83
285,Egvekinot,RU,2022-03-29 18:57:09,66.3167,-179.1667,-8.86,83,8,12.62
286,Gigmoto,PH,2022-03-29 18:57:09,13.7796,124.39,78.17,87,43,8.75
287,Nelson Bay,AU,2022-03-29 18:57:10,-32.7167,152.15,72.09,85,76,14.54
288,College,US,2022-03-29 18:52:16,64.8569,-147.8028,33.8,63,100,8.05
289,Tahoua,NE,2022-03-29 18:57:11,14.8888,5.2692,93.18,1,5,8.05
290,Poli,TZ,2022-03-29 18:57:11,-3.3333,36.8,68.27,80,97,2.35
291,Saint-Pierre,RE,2022-03-29 18:57:12,-21.3393,55.4781,76.68,91,100,25.32
292,Ombessa,CM,2022-03-29 18:57:12,4.603,11.2565,80.83,54,12,8.75
293,Muros,ES,2022-03-29 18:57:13,42.7762,-9.0603,57.09,69,83,11.79
294,Coroico,BO,2022-03-29 18:57:14,-16.1889,-67.7271,78.35,52,100,5.1
295,Kavieng,PG,2022-03-29 18:57:14,-2.5744,150.7967,81.55,78,51,8.14
296,Nerchinskiy Zavod,RU,2022-03-29 18:57:15,51.3088,119.61,9.12,74,4,1.81
297,Port Moresby,PG,2022-03-29 18:57:15,-9.4431,147.1797,74.62,94,0,5.75
298,Moose Factory,CA,2022-03-29 18:57:16,51.2585,-80.6094,24.8,30,0,13.8
299,Belaya Gora,RU,2022-03-29 18:57:17,68.5333,146.4167,-19.37,100,21,2.19
300,Haines Junction,CA,2022-03-29 18:57:17,60.7522,-137.5108,33.75,55,100,4.61
301,Aden,YE,2022-03-29 18:57:18,12.7794,45.0367,80.35,66,0,11.07
302,Wasco,US,2022-03-29 18:54:52,35.5941,-119.341,60.28,71,100,4.61
303,Omboue,GA,2022-03-29 18:57:18,-1.5746,9.2618,77.02,85,90,5.61
304,Sakyla,FI,2022-03-29 18:57:19,61.0333,22.3333,22.05,76,97,5.57
305,Nuuk,GL,2022-03-29 18:57:19,64.1835,-51.7216,23.88,92,2,10.0
306,Port Blair,IN,2022-03-29 18:57:20,11.6667,92.75,78.84,94,20,1.14
307,Yangmei,CN,2022-03-29 18:57:21,24.1023,112.5618,61.23,97,100,1.1
308,San Carlos Del Zulia,VE,2022-03-29 18:57:21,9.0,-71.9135,88.79,55,100,4.14
309,Punta Alta,AR,2022-03-29 18:57:21,-38.8759,-62.0736,63.79,33,76,26.75
310,Nigran,ES,2022-03-29 18:57:22,42.1415,-8.8066,61.03,59,0,13.8
311,Zelenets,RU,2022-03-29 18:57:23,61.8849,50.7489,19.65,95,100,2.68
312,Namibe,AO,2022-03-29 18:57:23,-15.1961,12.1522,71.1,75,89,14.81
313,Ixtapa,MX,2022-03-29 18:57:24,20.7,-105.2,90.1,23,6,9.35
314,Homer,US,2022-03-29 18:57:25,59.6425,-151.5483,39.78,87,90,1.99
315,Cravo Norte,CO,2022-03-29 18:57:26,6.3017,-70.2041,77.4,76,100,2.48
316,Baruun-Urt,MN,2022-03-29 18:57:26,46.6806,113.2792,21.52,33,100,4.05
317,Gilbues,BR,2022-03-29 18:57:27,-9.8317,-45.3439,85.98,50,99,9.95
318,Buchanan,LR,2022-03-29 18:57:27,5.8808,-10.0467,81.55,83,100,8.57
319,Elk River,US,2022-03-29 18:57:28,45.3038,-93.5672,44.47,39,100,11.01
320,Xian,CN,2022-03-29 18:57:28,34.2583,108.9286,54.41,56,100,2.39
321,Stornoway,GB,2022-03-29 18:57:29,58.2093,-6.3865,40.96,63,75,17.27
322,Bethanien,NA,2022-03-29 18:57:29,-26.502,17.1583,75.88,35,7,5.39
323,Himensulan,PH,2022-03-29 18:57:30,10.5967,124.2821,82.26,74,29,10.42
324,Coihaique,CL,2022-03-29 18:55:08,-45.5752,-72.0662,54.21,43,20,8.05
325,Rovinj,HR,2022-03-29 18:57:31,45.08,13.64,53.42,93,96,11.32
326,Yarada,IN,2022-03-29 18:57:31,17.65,83.2667,82.72,89,40,5.75
327,Chokurdakh,RU,2022-03-29 18:57:32,70.6333,147.9167,-18.9,95,5,3.13
328,Lavrentiya,RU,2022-03-29 18:57:32,65.5833,-171.0,-5.66,92,30,5.68
329,Port-Cartier,CA,2022-03-29 18:58:32,50.0334,-66.8654,37.51,85,86,13.11
330,Namie,JP,2022-03-29 18:58:33,37.4833,141.0,47.71,88,0,5.5
331,Soyo,AO,2022-03-29 18:58:33,-6.1349,12.3689,76.48,83,30,1.21
332,Songjianghe,CN,2022-03-29 18:58:34,42.1859,127.479,30.87,98,100,2.42
333,Isla Mujeres,MX,2022-03-29 18:58:34,21.2311,-86.731,84.25,63,0,16.91
334,Shikarpur,PK,2022-03-29 18:58:35,27.9571,68.6379,80.49,5,0,12.57
335,Mecca,SA,2022-03-29 18:58:35,21.4267,39.8261,79.74,39,1,1.9
336,Pangnirtung,CA,2022-03-29 18:58:36,66.1451,-65.7125,21.2,73,100,4.61
337,Mangai,CD,2022-03-29 18:58:36,-4.05,19.5333,73.45,86,95,2.37
338,Pochutla,MX,2022-03-29 18:58:37,15.7432,-96.4661,88.83,38,100,10.31
339,Jiazi,CN,2022-03-29 18:58:37,22.8779,116.067,67.32,87,100,11.14
340,Paarl,ZA,2022-03-29 18:58:38,-33.7338,18.9752,63.01,91,77,6.8
341,Sangar,RU,2022-03-29 18:58:38,63.9242,127.4739,-10.26,99,95,3.76
342,Broomfield,US,2022-03-29 18:58:39,39.9205,-105.0866,55.69,67,100,11.99
343,Hami,CN,2022-03-29 18:58:39,42.8,93.45,48.11,28,100,14.61
344,Rawson,AR,2022-03-29 18:58:39,-43.3002,-65.1023,53.65,42,100,35.95
345,Sigli,ID,2022-03-29 18:58:40,5.3848,95.9609,78.94,84,25,4.61
346,Ucluelet,CA,2022-03-29 18:58:40,48.9329,-125.5528,48.09,93,100,1.01
347,Slavonski Brod,HR,2022-03-29 18:58:41,45.1603,18.0156,59.18,51,100,5.3
348,Kurumkan,RU,2022-03-29 18:58:41,54.3,110.3,0.48,87,18,4.7
349,Westport,US,2022-03-29 18:56:09,41.1415,-73.3579,39.34,39,100,11.99
350,Ardesen,TR,2022-03-29 18:58:42,41.1911,40.9875,52.0,62,98,11.63
351,Sitka,US,2022-03-29 18:58:42,57.0531,-135.33,38.64,91,100,6.42
352,Noumea,NC,2022-03-29 18:58:43,-22.2763,166.4572,81.0,99,100,6.76
353,Muswellbrook,AU,2022-03-29 18:58:43,-32.2667,150.9,64.24,99,100,3.42
354,Paamiut,GL,2022-03-29 18:58:44,61.994,-49.6678,31.05,72,12,6.2
355,Vila Franca Do Campo,PT,2022-03-29 18:58:44,37.7167,-25.4333,61.21,96,100,6.17
356,Kalulushi,ZM,2022-03-29 18:58:45,-12.8378,28.0919,62.64,97,26,4.29
357,Chicama,PE,2022-03-29 18:58:45,-7.8447,-79.1469,70.34,58,52,11.23
358,Mana,GF,2022-03-29 18:58:45,5.6592,-53.7767,80.37,69,99,10.85
359,Rudnichnyy,RU,2022-03-29 18:58:46,59.617,52.4703,14.88,97,100,2.75
360,Carnot,CF,2022-03-29 18:58:46,4.9409,15.8665,79.09,22,6,2.1
361,Lucea,JM,2022-03-29 18:56:29,18.451,-78.1736,84.85,69,20,22.44
362,Bambous Virieux,MU,2022-03-29 18:55:09,-20.3428,57.7575,80.85,69,40,5.75
363,Esmeraldas,BR,2022-03-29 18:58:47,-19.7625,-44.3139,87.91,58,100,1.39
364,Los Llanos De Aridane,ES,2022-03-29 18:58:48,28.6585,-17.9182,64.15,80,20,8.99
365,Hovd,MN,2022-03-29 18:58:48,48.0056,91.6419,29.3,37,94,4.97
366,Nuevo Ideal,MX,2022-03-29 18:58:49,24.8875,-105.0728,79.25,11,100,21.79
367,Juan Lacaze,UY,2022-03-29 18:58:49,-34.4342,-57.4381,81.12,63,79,10.67
368,Khorixas,NA,2022-03-29 18:58:50,-20.3667,14.9667,74.95,49,94,13.44
369,Mount Gambier,AU,2022-03-29 18:58:50,-37.8333,140.7667,55.31,76,100,2.3
370,Zaozerne,UA,2022-03-29 18:58:51,45.1582,33.2787,49.32,74,100,20.62
371,Carhuamayo,PE,2022-03-29 18:58:51,-10.9167,-76.0333,47.57,72,99,8.52
372,Dharchula,IN,2022-03-29 18:58:52,29.85,80.5333,62.96,34,0,7.47
373,Kalmunai,LK,2022-03-29 18:54:44,7.4167,81.8167,78.66,87,4,7.38
374,Acari,PE,2022-03-29 18:58:52,-15.4311,-74.6158,81.72,53,25,11.36
375,Yaan,NG,2022-03-29 18:58:53,7.3833,8.5667,88.93,11,72,0.81
376,Bilma,NE,2022-03-29 18:58:53,18.6853,12.9164,79.18,4,2,5.57
377,Gopalpur,IN,2022-03-29 18:59:54,19.2667,84.9167,77.67,93,1,16.2
378,Port Hedland,AU,2022-03-29 18:59:54,-20.3167,118.5667,84.25,70,75,4.61
379,Petrovsk-Zabaykalskiy,RU,2022-03-29 18:59:55,51.273,108.843,0.68,98,6,2.55
380,Watrous,CA,2022-03-29 18:59:55,51.6668,-105.4679,24.58,80,100,23.02
381,Vila,PT,2022-03-29 18:59:55,42.0304,-8.1588,49.08,88,97,5.17
382,Sibolga,ID,2022-03-29 18:59:56,1.7427,98.7792,75.42,79,59,3.78
383,Balikpapan,ID,2022-03-29 18:59:56,-1.2675,116.8289,81.59,78,20,4.61
384,Batagay-Alyta,RU,2022-03-29 18:59:57,67.8006,130.4114,-8.63,88,99,3.87
385,Marzuq,YE,2022-03-29 18:59:57,14.4,46.4667,67.95,24,2,4.07
386,Matara,LK,2022-03-29 18:59:58,5.9485,80.5353,77.49,88,2,1.79
387,Semnan,IR,2022-03-29 18:59:58,35.5729,53.3971,52.5,32,0,4.0
388,Iqaluit,CA,2022-03-29 18:59:58,63.7506,-68.5145,22.73,79,100,3.44
389,Leh,IN,2022-03-29 18:59:59,34.1667,77.5833,25.63,58,0,1.43
390,Outjo,NA,2022-03-29 18:59:59,-20.1167,16.15,70.79,65,96,10.45
391,Shaturtorf,RU,2022-03-29 19:00:00,55.5672,39.4169,26.83,96,100,5.39
392,Calama,CL,2022-03-29 19:00:01,-22.4667,-68.9333,75.09,12,0,16.44
393,Pingxiang,CN,2022-03-29 19:00:02,27.6167,113.85,62.31,98,99,1.54
394,Sault Sainte Marie,CA,2022-03-29 18:59:34,46.5168,-84.3333,30.02,43,20,4.61
395,Fort Nelson,CA,2022-03-29 19:00:06,58.8053,-122.7002,33.12,99,94,1.77
396,Ndola,ZM,2022-03-29 18:58:09,-12.9587,28.6366,63.5,97,70,4.99
397,Terrace,CA,2022-03-29 18:55:37,54.5163,-128.6035,42.71,75,100,3.44
398,Bima,ID,2022-03-29 19:00:12,-8.4667,118.7167,76.14,91,100,2.35
399,Fukue,JP,2022-03-29 19:00:17,32.6881,128.8419,61.52,91,100,15.73
400,Rundu,NA,2022-03-29 19:00:19,-17.9333,19.7667,71.94,66,99,4.32
401,Shelburne,CA,2022-03-29 19:00:20,44.0787,-80.2041,30.13,45,6,10.4
402,Bandarbeyla,SO,2022-03-29 19:00:21,9.4942,50.8122,80.08,77,67,18.21
403,Oranjemund,NA,2022-03-29 19:00:21,-28.55,16.4333,63.21,87,100,4.03
404,Birjand,IR,2022-03-29 19:00:22,32.8663,59.2211,48.92,32,0,5.32
405,Afua,BR,2022-03-29 19:00:23,-0.1567,-50.3867,74.39,96,100,2.26
406,Moosomin,CA,2022-03-29 19:00:24,50.1333,-101.6677,29.14,96,100,14.07
407,Ati,TD,2022-03-29 19:00:25,13.2154,18.3353,81.25,6,78,11.21
408,Kapoeta,SS,2022-03-29 19:00:26,4.7717,33.5903,84.83,38,48,3.09
409,Yumen,CN,2022-03-29 19:00:27,40.2833,97.2,39.6,37,90,9.26
410,Kemin,KG,2022-03-29 19:00:28,42.7846,75.6892,24.67,95,92,1.9
411,Mandan,US,2022-03-29 19:00:29,46.8267,-100.8896,49.01,44,0,5.01
412,Naze,JP,2022-03-29 19:00:29,28.3667,129.4833,64.63,84,100,15.3
413,Poshekhonye,RU,2022-03-29 19:00:30,58.4993,39.1353,12.16,94,100,2.77
414,Sarahan,IN,2022-03-29 19:00:30,31.5167,77.8,51.98,26,0,7.36
415,Kinel,RU,2022-03-29 18:56:58,53.2333,50.65,36.64,91,97,12.19
416,Hay River,CA,2022-03-29 19:00:31,60.8156,-115.7999,25.79,95,100,7.38
417,Peace River,CA,2022-03-29 19:00:22,56.2501,-117.286,40.93,68,91,11.3
418,Mackay,AU,2022-03-29 19:00:32,-21.15,149.2,70.68,56,0,7.31
419,Coahuayana,MX,2022-03-29 19:00:33,18.7333,-103.6833,90.27,27,6,7.49
420,Seymchan,RU,2022-03-29 19:00:33,62.8833,152.4333,2.37,91,100,4.21
421,Ballangen,NO,2022-03-29 19:00:34,68.3428,16.8315,28.62,80,75,11.5
422,Coquimbo,CL,2022-03-29 19:00:34,-29.9533,-71.3436,68.32,60,0,8.46
423,Bathsheba,BB,2022-03-29 19:00:34,13.2167,-59.5167,80.51,66,10,16.64
424,Sinazongwe,ZM,2022-03-29 19:01:35,-17.2614,27.4618,74.16,79,11,5.21
425,Baykit,RU,2022-03-29 19:01:36,61.67,96.37,4.21,100,100,1.81
426,Makakilo City,US,2022-03-29 19:01:36,21.3469,-158.0858,75.69,81,100,8.75
427,Remedios,CU,2022-03-29 19:01:37,22.4947,-79.5458,79.0,55,93,17.74
428,Jiuquan,CN,2022-03-29 19:01:37,39.7432,98.5174,39.83,37,100,0.65
429,Sesheke,ZM,2022-03-29 19:01:38,-17.4759,24.2968,66.07,94,14,4.32
430,Goleniow,PL,2022-03-29 19:00:58,53.5639,14.8285,43.61,56,0,6.91
431,Port Macquarie,AU,2022-03-29 18:57:51,-31.4333,152.9167,67.89,100,75,11.5
432,Miles City,US,2022-03-29 19:01:39,46.4083,-105.8406,44.13,46,100,24.85
433,Holbeach,GB,2022-03-29 19:01:40,52.804,0.0144,45.97,80,11,7.0
434,Kloulklubed,PW,2022-03-29 19:01:40,7.0419,134.2556,82.83,74,6,13.4
435,Uran,IN,2022-03-29 19:01:40,18.8769,72.9397,84.16,69,0,6.22
436,Guerrero Negro,MX,2022-03-29 19:01:41,27.9769,-114.0611,68.05,56,3,17.11
437,Watertown,US,2022-03-29 18:57:37,42.3709,-71.1828,39.42,36,85,11.99
438,Morehead,US,2022-03-29 19:01:42,37.2711,-87.1764,63.99,37,0,9.22
439,Saldanha,ZA,2022-03-29 19:01:42,-33.0117,17.9442,61.57,86,6,8.12
440,Clyde River,CA,2022-03-29 19:01:42,70.4692,-68.5914,2.79,87,25,3.65
441,Anderson,US,2022-03-29 18:57:21,34.5334,-82.6499,63.39,29,98,1.99
442,Shingu,JP,2022-03-29 19:01:43,33.7333,135.9833,52.45,90,46,4.65
443,Korgen,NO,2022-03-29 19:01:44,66.0771,13.8153,24.93,99,100,2.46
444,Hvolsvollur,IS,2022-03-29 19:01:44,63.7533,-20.2243,38.82,64,79,1.3
445,Antofagasta,CL,2022-03-29 19:01:44,-23.65,-70.4,72.21,49,17,11.05
446,Emba,KZ,2022-03-29 19:01:45,48.8264,58.1442,32.9,82,58,23.4
447,La Ronge,CA,2022-03-29 19:01:45,55.1001,-105.2842,27.66,81,100,5.86
448,Xalpatlahuac,MX,2022-03-29 19:01:46,17.4667,-98.6167,87.26,17,5,2.24
449,Onguday,RU,2022-03-29 19:01:46,50.75,86.15,19.92,91,100,3.98
450,Suruc,TR,2022-03-29 19:01:47,36.9761,38.425,53.13,49,100,4.54
451,Lujan,AR,2022-03-29 19:01:46,-34.5703,-59.105,82.26,79,99,8.01
452,Inta,RU,2022-03-29 19:01:47,66.0317,60.1659,4.96,96,95,4.92
453,Fare,PF,2022-03-29 19:01:48,-16.7,-151.0167,82.13,70,3,17.52
454,Black River,JM,2022-03-29 18:59:18,18.0264,-77.8487,83.17,53,19,6.31
455,Sioux Lookout,CA,2022-03-29 19:01:48,50.1001,-91.917,34.36,96,100,9.91
456,Svetlaya,RU,2022-03-29 19:01:49,46.5389,138.3297,33.44,66,100,8.63
457,Santa Marta,CO,2022-03-29 19:01:49,11.2408,-74.199,86.9,61,98,18.01
458,Nishihara,JP,2022-03-29 19:01:50,26.1842,127.7558,70.88,88,75,11.5
459,Hwange,ZW,2022-03-29 19:01:50,-18.3693,26.5019,68.81,81,9,3.4
460,Mahibadhoo,MV,2022-03-29 19:01:51,3.7833,72.9667,82.06,70,0,3.74
461,Grootfontein,NA,2022-03-29 19:01:51,-19.5667,18.1167,69.31,58,54,5.17
462,San Felipe,VE,2022-03-29 19:01:52,10.3399,-68.7425,83.48,62,100,9.86
463,Flin Flon,CA,2022-03-29 19:01:52,54.7682,-101.865,28.17,78,100,8.84
464,Matagami,CA,2022-03-29 19:01:53,49.7502,-77.6328,21.31,42,75,13.8
465,Mocuba,MZ,2022-03-29 19:01:53,-16.8392,36.9856,70.27,98,29,3.74
466,Springdale,US,2022-03-29 19:01:54,36.1867,-94.1288,74.57,61,0,26.46
467,Santo Amaro Da Imperatriz,BR,2022-03-29 19:01:54,-27.6881,-48.7786,87.66,82,0,6.38
468,Hobyo,SO,2022-03-29 19:02:55,5.3505,48.5268,81.43,70,9,17.6
469,Pierre,US,2022-03-29 19:02:07,44.3683,-100.351,51.85,40,100,11.01
470,Amarante Do Maranhao,BR,2022-03-29 19:02:55,-5.5667,-46.7422,77.59,91,100,3.4
471,Billings,US,2022-03-29 19:02:56,45.7833,-108.5007,40.28,75,100,12.66
472,Petropavlovsk-Kamchatskiy,RU,2022-03-29 19:02:56,53.0452,158.6483,23.59,58,0,13.42
473,Tyup,KG,2022-03-29 19:02:57,42.7276,78.3648,27.25,87,99,9.46
474,Bambanglipuro,ID,2022-03-29 19:01:20,-7.95,110.2833,77.29,86,82,3.33
475,Hualmay,PE,2022-03-29 19:02:58,-11.0964,-77.6139,75.36,73,13,12.08
476,Talnakh,RU,2022-03-29 19:02:58,69.4865,88.3972,18.59,94,100,11.7
477,Grand Gaube,MU,2022-03-29 19:02:59,-20.0064,57.6608,79.2,77,1,1.99
478,Marsh Harbour,BS,2022-03-29 19:02:59,26.5412,-77.0636,74.75,61,0,2.71
479,Algiers,DZ,2022-03-29 19:02:49,36.7525,3.042,58.82,88,75,2.3
480,Kimbe,PG,2022-03-29 19:03:00,-5.5502,150.1429,74.66,92,60,2.46
481,Pointe Michel,DM,2022-03-29 19:03:00,15.25,-61.3833,79.92,62,100,13.65
482,Bani Walid,LY,2022-03-29 19:03:01,31.7566,13.9942,69.44,31,55,13.02
483,Saint-Leu,RE,2022-03-29 19:03:01,-21.15,55.2833,76.06,83,100,9.48
484,Torres,BR,2022-03-29 19:03:02,-29.3353,-49.7269,90.82,67,0,12.66
485,La Palma,US,2022-03-29 19:03:02,33.8464,-118.0467,68.5,66,75,5.01
486,Urucurituba,BR,2022-03-29 19:03:03,-2.6833,-57.6667,77.67,94,100,3.8
487,Ndele,CF,2022-03-29 19:03:03,8.4109,20.6473,82.18,12,7,3.49
488,Ustye,RU,2022-03-29 19:03:04,59.6304,39.736,10.58,94,100,4.38
489,Soligalich,RU,2022-03-29 19:03:04,59.0778,42.2864,12.24,96,100,3.38
490,Vardo,NO,2022-03-29 19:03:05,70.3705,31.1107,28.38,86,75,24.16
491,Sande,DE,2022-03-29 19:03:05,53.5049,8.0142,42.84,89,100,5.41
492,Biak,ID,2022-03-29 19:03:06,-0.9131,122.8766,75.56,85,100,2.89
493,Atambua,ID,2022-03-29 19:03:06,-9.1061,124.8925,72.79,88,92,1.52
494,Chinhoyi,ZW,2022-03-29 19:03:07,-17.3667,30.2,63.45,93,96,4.74
495,El Juncal,HN,2022-03-29 19:03:07,15.45,-86.4333,88.0,46,100,2.75
496,Atasu,KZ,2022-03-29 19:03:08,48.6814,71.6433,23.9,81,100,24.74
497,Gobabis,NA,2022-03-29 19:03:08,-22.45,18.9667,73.83,47,77,11.23
498,Sidi Ali,DZ,2022-03-29 19:03:08,36.0998,0.4206,55.58,88,85,5.73
499,Kailua,US,2022-03-29 19:03:09,21.4022,-157.7394,77.14,78,100,4.0
500,Buckingham,GB,2022-03-29 19:03:09,51.9997,-0.9878,46.9,94,92,1.99
501,Kalabagh,PK,2022-03-29 19:03:10,32.965,71.557,79.61,16,0,5.39
502,Erenhot,CN,2022-03-29 19:03:11,43.6475,111.9767,31.46,33,100,13.38
503,Sola,VU,2022-03-29 19:01:23,-13.8833,167.55,81.82,75,100,5.46
504,Narsaq,GL,2022-03-29 19:03:11,60.9167,-46.05,35.82,69,71,3.62
505,Kaitangata,NZ,2022-03-29 19:03:12,-46.2817,169.8464,51.85,95,13,2.55
506,Tautira,PF,2022-03-29 19:03:12,-17.7333,-149.15,81.64,75,17,16.64
507,Atherton,GB,2022-03-29 19:03:13,53.5237,-2.4935,51.19,82,97,1.99
508,Bahadurgarh,IN,2022-03-29 19:03:13,28.6833,76.9167,78.91,9,0,1.36
509,Amapa,BR,2022-03-29 19:03:13,1.0,-52.0,77.38,95,100,2.46
510,Aligudarz,IR,2022-03-29 19:03:14,33.4006,49.6949,48.54,25,0,3.47
511,Dali,CN,2022-03-29 19:03:14,25.7,100.1833,52.83,82,10,4.97
512,Taree,AU,2022-03-29 19:03:15,-31.9,152.4667,69.12,95,100,6.04
513,Camacha,PT,2022-03-29 19:03:15,33.0833,-16.3333,60.22,77,40,21.85
514,Nabire,ID,2022-03-29 19:03:16,-3.3667,135.4833,74.43,93,100,2.17
515,Tandil,AR,2022-03-29 19:00:03,-37.3217,-59.1332,69.37,35,3,19.1
516,Kolobrzeg,PL,2022-03-29 19:04:16,54.1757,15.5834,42.96,71,100,10.27
517,Raudeberg,NO,2022-03-29 19:04:17,61.9875,5.1352,32.67,93,92,9.84
518,Presidente Medici,BR,2022-03-29 19:04:17,-11.1753,-61.9014,84.6,75,100,3.38
519,Champerico,GT,2022-03-29 19:00:33,14.3,-91.9167,86.81,54,83,12.1
520,Oktyabrskiy,RU,2022-03-29 19:04:18,54.4815,53.471,34.47,84,100,16.31
521,Luau,AO,2022-03-29 19:04:19,-10.7073,22.2247,66.56,97,100,8.08
522,Termiz,UZ,2022-03-29 19:04:19,37.2242,67.2783,48.29,40,0,2.3
523,Pemberton,CA,2022-03-29 19:04:20,50.3164,-122.8027,48.88,86,100,1.3
524,Muisne,EC,2022-03-29 19:04:21,0.6,-80.0333,80.11,79,71,5.84
525,Taunggyi,MM,2022-03-29 19:04:21,20.7833,97.0333,62.35,51,82,2.84
526,Alugan,PH,2022-03-29 19:04:22,12.2188,125.4808,78.28,85,25,9.08
527,Obukhiv,UA,2022-03-29 19:04:22,50.11,30.6227,50.54,80,100,6.46
528,Tessalit,ML,2022-03-29 19:04:23,20.1986,1.0114,88.05,7,10,11.68
529,Nymburk,CZ,2022-03-29 19:04:23,50.1861,15.0417,51.94,70,100,6.22
530,Ewa Beach,US,2022-03-29 19:04:24,21.3156,-158.0072,77.09,72,75,11.5
531,Caluquembe,AO,2022-03-29 19:04:24,-13.7833,14.6833,64.69,69,66,1.9
532,Linjiang,CN,2022-03-29 19:04:25,41.8069,126.9078,35.33,94,100,1.95
533,Upington,ZA,2022-03-29 19:02:20,-28.4478,21.2561,77.59,48,100,4.0
534,Losevo,RU,2022-03-29 19:04:26,50.6767,40.045,45.07,90,99,10.87
535,Saint-Francois,FR,2022-03-29 19:04:26,46.4154,3.9054,58.44,52,0,4.61
536,Iquitos,PE,2022-03-29 19:03:36,-3.7481,-73.2472,72.97,97,100,2.57
537,Madimba,TZ,2022-03-29 19:04:27,-10.4,40.3333,78.67,86,90,6.11
538,Swift Current,CA,2022-03-29 19:04:27,50.2834,-107.8014,32.61,65,100,17.52
539,Braganca,BR,2022-03-29 19:04:28,-1.0536,-46.7656,78.6,95,100,2.51
540,Sampang,ID,2022-03-29 19:04:28,-7.1872,113.2394,79.92,81,100,0.56
541,Valdivia,CL,2022-03-29 19:04:29,-39.8142,-73.2459,60.96,41,60,8.5
542,Tucuma,BR,2022-03-29 19:01:05,-0.1833,-50.05,74.01,95,100,2.08
543,Botucatu,BR,2022-03-29 19:03:27,-22.8858,-48.445,79.57,59,65,1.97
544,Soe,ID,2022-03-29 19:04:30,-9.8607,124.284,65.64,92,100,2.82
545,Tomatlan,MX,2022-03-29 19:04:30,19.9333,-105.25,91.2,21,0,11.48
546,Shamary,RU,2022-03-29 19:04:30,57.3434,58.2199,20.48,96,100,6.98
547,Crateus,BR,2022-03-29 19:04:31,-5.1783,-40.6775,83.86,52,100,4.61
548,Katobu,ID,2022-03-29 19:04:31,-4.9408,122.5276,75.27,92,100,2.73
549,Waitati,NZ,2022-03-29 19:04:32,-45.75,170.5667,58.8,86,11,2.17
550,Abu Samrah,SY,2022-03-29 19:04:32,35.3029,37.1841,57.33,38,100,7.83
551,Meadow Lake,US,2022-03-29 19:04:33,34.8014,-106.5436,59.68,45,100,31.14
552,Zambrow,PL,2022-03-29 19:04:33,52.9855,22.2432,40.14,72,100,2.64
553,Maniitsoq,GL,2022-03-29 19:04:34,65.4167,-52.9,27.18,87,18,8.9
554,Vaitape,PF,2022-03-29 19:04:34,-16.5167,-151.75,82.56,72,16,17.54
555,Pedernales,DO,2022-03-29 19:04:35,18.0384,-71.744,80.06,71,26,7.11
556,Ejido,VE,2022-03-29 19:04:35,8.5514,-71.2375,76.32,75,100,5.17
557,Mandalgovi,MN,2022-03-29 19:04:35,45.7625,106.2708,25.63,32,7,5.77
558,Laranjeiras Do Sul,BR,2022-03-29 19:04:36,-25.4078,-52.4161,81.37,52,26,5.91
559,Tazovskiy,RU,2022-03-29 19:04:36,67.4667,78.7,27.52,93,100,12.53
560,Roma,US,2022-03-29 19:00:05,43.2128,-75.4557,32.38,43,100,20.0
561,Guayaquil,EC,2022-03-29 19:01:04,-2.1667,-79.9,83.95,87,79,3.22
562,San Antero,CO,2022-03-29 19:05:37,9.3741,-75.7589,87.8,62,71,9.28
563,Itoman,JP,2022-03-29 19:05:38,26.1247,127.6694,71.98,92,75,16.11
564,Lasa,IT,2022-03-29 19:05:38,46.6166,10.7002,48.36,90,100,2.08
565,Hamilton,US,2022-03-29 19:05:39,39.1834,-84.5333,44.94,37,40,11.5
